{"type":"FeatureCollection","features":[{"type":"Feature","id":"M_101","properties":{"label":"협잡물종합처리기 제어밸브","tag":"M-101 A~B","sheet":"DXF:M-013","in_bldg":false},"geometry":{"type":"Point","coordinates":[127.3898406,37.5104938]}},{"type":"Feature","id":"M_102","properties":{"label":"협잡물종합처리기","tag":"M-102 A,B","sheet":"DXF:M-013","in_bldg":true},"geometry":{"type":"Point","coordinates":[127.3899014,37.5104892]}},{"type":"Feature","id":"M_104","properties":{"label":"협잡물및침사물 이송컨베이어(1)","tag":"M-104","sheet":"DXF:M-013","in_bldg":true},"geometry":{"type":"Point","coordinates":[127.3898186,37.5104485]}},{"type":"Feature","id":"M_105","properties":{"label":"협잡물및침사물 이송컨베이어(2)","tag":"M-105","sheet":"DXF:M-013","in_bldg":true},"geometry":{"type":"Point","coordinates":[127.3898024,37.5104284]}},{"type":"Feature","id":"M_106","properties":{"label":"유량조정조 펌프","tag":"M-106 A~C","sheet":"DXF:M-014","in_bldg":true},"geometry":{"type":"Point","coordinates":[127.3898503,37.5103835]}},{"type":"Feature","id":"M_107","properties":{"label":"유량조정조 교반기","tag":"M-107 A~D","sheet":"DXF:M-014","in_bldg":true},"geometry":{"type":"Point","coordinates":[127.3899332,37.5104435]}},{"type":"Feature","id":"M_108","properties":{"label":"유량조정조 유입수문","tag":"M-108 A,B","sheet":"DXF:M-013","in_bldg":true},"geometry":{"type":"Point","coordinates":[127.3898529,37.5103525]}},{"type":"Feature","id":"M_109","properties":{"label":"장비 반출입 호이스트","tag":"M-109","sheet":"DXF:M-012","in_bldg":true},"geometry":{"type":"Point","coordinates":[127.3898058,37.5103295]}},{"type":"Feature","id":"M_112","properties":{"label":"협잡물 이송 컨베이어(2)","tag":"M-112","sheet":"DXF:M-013","in_bldg":false},"geometry":{"type":"Point","coordinates":[127.3897327,37.5103507]}},{"type":"Feature","id":"M_113","properties":{"label":"협잡물 이송 컨베이어(3)","tag":"M-113","sheet":"DXF:M-013","in_bldg":false},"geometry":{"type":"Point","coordinates":[127.3897248,37.5103411]}},{"type":"Feature","id":"M_115","properties":{"label":"유지관리용 호이스트","tag":"M-115","sheet":"DXF:M-013","in_bldg":true},"geometry":{"type":"Point","coordinates":[127.3898932,37.5103872]}},{"type":"Feature","id":"M_201","properties":{"label":"혐기조 액이송교반장치","tag":"M-201 A,B","sheet":"DXF:M-014","in_bldg":true},"geometry":{"type":"Point","coordinates":[127.3898162,37.510254]}},{"type":"Feature","id":"M_202","properties":{"label":"혐기조 액이송제어밸브","tag":"M-202 A,B","sheet":"DXF:M-013","in_bldg":true},"geometry":{"type":"Point","coordinates":[127.3900061,37.5104399]}},{"type":"Feature","id":"M_203","properties":{"label":"공유조 액이송교반장치","tag":"M-203 A,B","sheet":"DXF:M-013","in_bldg":true},"geometry":{"type":"Point","coordinates":[127.3899857,37.5103911]}},{"type":"Feature","id":"M_204","properties":{"label":"막분리조 다목적교반장치","tag":"M-204 A~D","sheet":"DXF:M-014","in_bldg":true},"geometry":{"type":"Point","coordinates":[127.3900937,37.5103816]}},{"type":"Feature","id":"M_205","properties":{"label":"공유조 송풍기","tag":"M-205 A~C","sheet":"DXF:M-012","in_bldg":true},"geometry":{"type":"Point","coordinates":[127.3900563,37.5102969]}},{"type":"Feature","id":"M_206","properties":{"label":"공유조 산기장치","tag":"M-206","sheet":"DXF:M-014","in_bldg":true},"geometry":{"type":"Point","coordinates":[127.3900507,37.5104017]}},{"type":"Feature","id":"M_207","properties":{"label":"막분리조 송풍기","tag":"M-207 A~C","sheet":"DXF:M-012","in_bldg":true},"geometry":{"type":"Point","coordinates":[127.3900097,37.5103003]}},{"type":"Feature","id":"M_208","properties":{"label":"분리막","tag":"M-208","sheet":"DXF:M-014","in_bldg":true},"geometry":{"type":"Point","coordinates":[127.3898801,37.5103063]}},{"type":"Feature","id":"M_210","properties":{"label":"처리수 흡입펌프","tag":"M-210 A~D","sheet":"DXF:M-013","in_bldg":true},"geometry":{"type":"Point","coordinates":[127.3901101,37.5102895]}},{"type":"Feature","id":"M_211","properties":{"label":"잉여슬러지 인발펌프","tag":"M-211 A~D","sheet":"DXF:M-014","in_bldg":true},"geometry":{"type":"Point","coordinates":[127.3899108,37.5103406]}},{"type":"Feature","id":"M_214","properties":{"label":"NaOCl 원액저장","tag":"M-214","sheet":"DXF:M-013","in_bldg":true},"geometry":{"type":"Point","coordinates":[127.3900385,37.5104218]}},{"type":"Feature","id":"M_217","properties":{"label":"NaOH 저장탱크","tag":"M-217","sheet":"DXF:M-013","in_bldg":true},"geometry":{"type":"Point","coordinates":[127.3900781,37.5104]}},{"type":"Feature","id":"M_219","properties":{"label":"바닥배수 펌프","tag":"M-219 A,B","sheet":"DXF:M-014","in_bldg":true},"geometry":{"type":"Point","coordinates":[127.3899027,37.5103694]}},{"type":"Feature","id":"M_220","properties":{"label":"세정수조 드레인 펌프","tag":"M-220 A,B","sheet":"DXF:M-014","in_bldg":true},"geometry":{"type":"Point","coordinates":[127.3899559,37.5103138]}},{"type":"Feature","id":"M_221","properties":{"label":"유지관리용 호이스트","tag":"M-221","sheet":"DXF:M-013","in_bldg":true},"geometry":{"type":"Point","coordinates":[127.3899654,37.5103153]}},{"type":"Feature","id":"M_222","properties":{"label":"송풍기용 호이스트","tag":"M-222","sheet":"DXF:M-012","in_bldg":true},"geometry":{"type":"Point","coordinates":[127.3900438,37.5102813]}},{"type":"Feature","id":"M_223","properties":{"label":"막유지관리용 호이스트","tag":"M-223","sheet":"DXF:M-013","in_bldg":true},"geometry":{"type":"Point","coordinates":[127.3899259,37.5103227]}},{"type":"Feature","id":"M_301","properties":{"label":"처리수펌프","tag":"M-301 A~C","sheet":"DXF:M-014","in_bldg":true},"geometry":{"type":"Point","coordinates":[127.3901296,37.5103121]}},{"type":"Feature","id":"M_303","properties":{"label":"유지관리용 호이스트","tag":"M-303","sheet":"DXF:M-013","in_bldg":true},"geometry":{"type":"Point","coordinates":[127.3901447,37.5103647]}},{"type":"Feature","id":"M_401","properties":{"label":"용수공급장치","tag":"M-401","sheet":"DXF:M-014","in_bldg":true},"geometry":{"type":"Point","coordinates":[127.3900941,37.5102603]}},{"type":"Feature","id":"M_502","properties":{"label":"슬러지공급 펌프","tag":"M-502 A~C","sheet":"DXF:M-014","in_bldg":true},"geometry":{"type":"Point","coordinates":[127.3900824,37.5102414]}},{"type":"Feature","id":"M_506","properties":{"label":"슬러지저류조 송풍기","tag":"M-506","sheet":"DXF:M-013","in_bldg":true},"geometry":{"type":"Point","coordinates":[127.3900188,37.5101761]}},{"type":"Feature","id":"M_507","properties":{"label":"폴리머 자동용해장치","tag":"M-507","sheet":"DXF:M-012","in_bldg":true},"geometry":{"type":"Point","coordinates":[127.3899614,37.5103656]}},{"type":"Feature","id":"M_601","properties":{"label":"탈취기","tag":"M-601","sheet":"DXF:M-012","in_bldg":true},"geometry":{"type":"Point","coordinates":[127.3899936,37.5102103]}},{"type":"Feature","id":"M_110","properties":{"label":"드럼스크린","tag":"M-110 A~C","sheet":"DXF:M-013","in_bldg":true},"geometry":{"type":"Point","coordinates":[127.3897849,37.5103311]}},{"type":"Feature","id":"M_111","properties":{"label":"협잡물 이송 컨베이어(1)","tag":"M-111","sheet":"DXF:M-013","in_bldg":false},"geometry":{"type":"Point","coordinates":[127.3897399,37.5103596]}},{"type":"Feature","id":"M_114","properties":{"label":"협잡물및침사물저장 콘테이너","tag":"M-114","sheet":"DXF:M-012","in_bldg":true},"geometry":{"type":"Point","coordinates":[127.3898516,37.5102635]}},{"type":"Feature","id":"M_215","properties":{"label":"NaOCl 원액이송펌프","tag":"M-215 A~C","sheet":"DXF:M-013","in_bldg":true},"geometry":{"type":"Point","coordinates":[127.3900117,37.5103729]}},{"type":"Feature","id":"M_216","properties":{"label":"NaOCl 희석탱크","tag":"M-216 A,B","sheet":"DXF:M-013","in_bldg":true},"geometry":{"type":"Point","coordinates":[127.3899164,37.510401]}},{"type":"Feature","id":"M_218","properties":{"label":"NaOH 주입펌프","tag":"M-218 A~C","sheet":"DXF:M-013","in_bldg":true},"geometry":{"type":"Point","coordinates":[127.3900365,37.5103697]}},{"type":"Feature","id":"M_302","properties":{"label":"총인처리시설","tag":"M-302","sheet":"DXF:M-012","in_bldg":true},"geometry":{"type":"Point","coordinates":[127.3899271,37.51038]}},{"type":"Feature","id":"M_503","properties":{"label":"케익이송 컨베이어","tag":"M-503","sheet":"DXF:M-012","in_bldg":true},"geometry":{"type":"Point","coordinates":[127.3898965,37.5102871]}},{"type":"Feature","id":"M_504","properties":{"label":"케익저장 콘테이너","tag":"M-504","sheet":"DXF:M-012","in_bldg":true},"geometry":{"type":"Point","coordinates":[127.3898835,37.5102371]}},{"type":"Feature","id":"M_505","properties":{"label":"슬러지저류조 산기장치","tag":"M-505 A,B","sheet":"DXF:M-014","in_bldg":true},"geometry":{"type":"Point","coordinates":[127.3900494,37.5102025]}},{"type":"Feature","id":"M_508","properties":{"label":"폴리머 공급펌프","tag":"M-508 A~C","sheet":"DXF:M-012","in_bldg":true},"geometry":{"type":"Point","coordinates":[127.3899311,37.5103416]}},{"type":"Feature","id":"M_601_1","properties":{"label":"탈취팬","tag":"M-601-1","sheet":"DXF:M-012","in_bldg":true},"geometry":{"type":"Point","coordinates":[127.3899293,37.5102714]}},{"type":"Feature","id":"M_501","properties":{"label":"슬러지 탈수기","tag":"M-501 A,B","sheet":"DXF:M-012","in_bldg":true},"geometry":{"type":"Point","coordinates":[127.3899177,37.5102989]}}]}