{"type":"FeatureCollection","features":[{"type":"Feature","id":"M_101","properties":{"label":"협잡물종합처리기 제어밸브","tag":"M-101 A~B","sheet":"DXF:M-013","in_bldg":false},"geometry":{"type":"Point","coordinates":[127.4001845,37.5113288]}},{"type":"Feature","id":"M_102","properties":{"label":"협잡물종합처리기","tag":"M-102 A,B","sheet":"DXF:M-013","in_bldg":true},"geometry":{"type":"Point","coordinates":[127.4002122,37.5112854]}},{"type":"Feature","id":"M_104","properties":{"label":"협잡물및침사물 이송컨베이어(1)","tag":"M-104","sheet":"DXF:M-013","in_bldg":true},"geometry":{"type":"Point","coordinates":[127.4001247,37.5113193]}},{"type":"Feature","id":"M_105","properties":{"label":"협잡물및침사물 이송컨베이어(2)","tag":"M-105","sheet":"DXF:M-013","in_bldg":true},"geometry":{"type":"Point","coordinates":[127.4000947,37.5113194]}},{"type":"Feature","id":"M_106","properties":{"label":"유량조정조 펌프","tag":"M-106 A~C","sheet":"DXF:M-014","in_bldg":true},"geometry":{"type":"Point","coordinates":[127.4000728,37.5112631]}},{"type":"Feature","id":"M_107","properties":{"label":"유량조정조 교반기","tag":"M-107 A~D","sheet":"DXF:M-014","in_bldg":true},"geometry":{"type":"Point","coordinates":[127.4001809,37.5112396]}},{"type":"Feature","id":"M_108","properties":{"label":"유량조정조 유입수문","tag":"M-108 A,B","sheet":"DXF:M-013","in_bldg":true},"geometry":{"type":"Point","coordinates":[127.4000414,37.5112447]}},{"type":"Feature","id":"M_109","properties":{"label":"장비 반출입 호이스트","tag":"M-109","sheet":"DXF:M-012","in_bldg":true},"geometry":{"type":"Point","coordinates":[127.3999918,37.511264]}},{"type":"Feature","id":"M_112","properties":{"label":"협잡물 이송 컨베이어(2)","tag":"M-112","sheet":"DXF:M-013","in_bldg":false},"geometry":{"type":"Point","coordinates":[127.399975,37.5113245]}},{"type":"Feature","id":"M_113","properties":{"label":"협잡물 이송 컨베이어(3)","tag":"M-113","sheet":"DXF:M-013","in_bldg":false},"geometry":{"type":"Point","coordinates":[127.3999606,37.5113247]}},{"type":"Feature","id":"M_115","properties":{"label":"유지관리용 호이스트","tag":"M-115","sheet":"DXF:M-013","in_bldg":true},"geometry":{"type":"Point","coordinates":[127.4000998,37.5112362]}},{"type":"Feature","id":"M_201","properties":{"label":"혐기조 액이송교반장치","tag":"M-201 A,B","sheet":"DXF:M-014","in_bldg":true},"geometry":{"type":"Point","coordinates":[127.3999173,37.5112165]}},{"type":"Feature","id":"M_202","properties":{"label":"혐기조 액이송제어밸브","tag":"M-202 A,B","sheet":"DXF:M-013","in_bldg":true},"geometry":{"type":"Point","coordinates":[127.4002162,37.5111886]}},{"type":"Feature","id":"M_203","properties":{"label":"공유조 액이송교반장치","tag":"M-203 A,B","sheet":"DXF:M-013","in_bldg":true},"geometry":{"type":"Point","coordinates":[127.4001535,37.5111761]}},{"type":"Feature","id":"M_204","properties":{"label":"막분리조 다목적교반장치","tag":"M-204 A~D","sheet":"DXF:M-014","in_bldg":true},"geometry":{"type":"Point","coordinates":[127.4002014,37.5110984]}},{"type":"Feature","id":"M_205","properties":{"label":"공유조 송풍기","tag":"M-205 A~C","sheet":"DXF:M-012","in_bldg":true},"geometry":{"type":"Point","coordinates":[127.4000916,37.5110781]}},{"type":"Feature","id":"M_206","properties":{"label":"공유조 산기장치","tag":"M-206","sheet":"DXF:M-014","in_bldg":true},"geometry":{"type":"Point","coordinates":[127.4001996,37.5111381]}},{"type":"Feature","id":"M_207","properties":{"label":"막분리조 송풍기","tag":"M-207 A~C","sheet":"DXF:M-012","in_bldg":true},"geometry":{"type":"Point","coordinates":[127.4000702,37.5111113]}},{"type":"Feature","id":"M_208","properties":{"label":"분리막","tag":"M-208","sheet":"DXF:M-014","in_bldg":true},"geometry":{"type":"Point","coordinates":[127.400007,37.5112016]}},{"type":"Feature","id":"M_210","properties":{"label":"처리수 흡입펌프","tag":"M-210 A~D","sheet":"DXF:M-013","in_bldg":true},"geometry":{"type":"Point","coordinates":[127.4001127,37.511038]}},{"type":"Feature","id":"M_211","properties":{"label":"잉여슬러지 인발펌프","tag":"M-211 A~D","sheet":"DXF:M-014","in_bldg":true},"geometry":{"type":"Point","coordinates":[127.4000599,37.5111994]}},{"type":"Feature","id":"M_214","properties":{"label":"NaOCl 원액저장","tag":"M-214","sheet":"DXF:M-013","in_bldg":true},"geometry":{"type":"Point","coordinates":[127.4002144,37.5111571]}},{"type":"Feature","id":"M_217","properties":{"label":"NaOH 저장탱크","tag":"M-217","sheet":"DXF:M-013","in_bldg":true},"geometry":{"type":"Point","coordinates":[127.4002126,37.5111188]}},{"type":"Feature","id":"M_219","properties":{"label":"바닥배수 펌프","tag":"M-219 A,B","sheet":"DXF:M-014","in_bldg":true},"geometry":{"type":"Point","coordinates":[127.400086,37.5112203]}},{"type":"Feature","id":"M_220","properties":{"label":"세정수조 드레인 펌프","tag":"M-220 A,B","sheet":"DXF:M-014","in_bldg":true},"geometry":{"type":"Point","coordinates":[127.4000556,37.5111547]}},{"type":"Feature","id":"M_221","properties":{"label":"유지관리용 호이스트","tag":"M-221","sheet":"DXF:M-013","in_bldg":true},"geometry":{"type":"Point","coordinates":[127.4000623,37.5111491]}},{"type":"Feature","id":"M_222","properties":{"label":"송풍기용 호이스트","tag":"M-222","sheet":"DXF:M-012","in_bldg":true},"geometry":{"type":"Point","coordinates":[127.4000684,37.5110782]}},{"type":"Feature","id":"M_223","properties":{"label":"막유지관리용 호이스트","tag":"M-223","sheet":"DXF:M-013","in_bldg":true},"geometry":{"type":"Point","coordinates":[127.400049,37.5111796]}},{"type":"Feature","id":"M_301","properties":{"label":"처리수펌프","tag":"M-301 A~C","sheet":"DXF:M-014","in_bldg":true},"geometry":{"type":"Point","coordinates":[127.4001471,37.511037]}},{"type":"Feature","id":"M_303","properties":{"label":"유지관리용 호이스트","tag":"M-303","sheet":"DXF:M-013","in_bldg":true},"geometry":{"type":"Point","coordinates":[127.4002109,37.5110551]}},{"type":"Feature","id":"M_401","properties":{"label":"용수공급장치","tag":"M-401","sheet":"DXF:M-014","in_bldg":true},"geometry":{"type":"Point","coordinates":[127.4000731,37.5110331]}},{"type":"Feature","id":"M_502","properties":{"label":"슬러지공급 펌프","tag":"M-502 A~C","sheet":"DXF:M-014","in_bldg":true},"geometry":{"type":"Point","coordinates":[127.4000469,37.5110308]}},{"type":"Feature","id":"M_506","properties":{"label":"슬러지저류조 송풍기","tag":"M-506","sheet":"DXF:M-013","in_bldg":true},"geometry":{"type":"Point","coordinates":[127.3999435,37.5110385]}},{"type":"Feature","id":"M_507","properties":{"label":"폴리머 자동용해장치","tag":"M-507","sheet":"DXF:M-012","in_bldg":true},"geometry":{"type":"Point","coordinates":[127.4001135,37.5111788]}},{"type":"Feature","id":"M_601","properties":{"label":"탈취기","tag":"M-601","sheet":"DXF:M-012","in_bldg":true},"geometry":{"type":"Point","coordinates":[127.3999662,37.5110738]}},{"type":"Feature","id":"M_110","properties":{"label":"드럼스크린","tag":"M-110 A~C","sheet":"DXF:M-013","in_bldg":true},"geometry":{"type":"Point","coordinates":[127.3999822,37.5112789]}},{"type":"Feature","id":"M_111","properties":{"label":"협잡물 이송 컨베이어(1)","tag":"M-111","sheet":"DXF:M-013","in_bldg":false},"geometry":{"type":"Point","coordinates":[127.3999883,37.5113245]}},{"type":"Feature","id":"M_114","properties":{"label":"협잡물및침사물저장 콘테이너","tag":"M-114","sheet":"DXF:M-012","in_bldg":true},"geometry":{"type":"Point","coordinates":[127.3999464,37.5111978]}},{"type":"Feature","id":"M_215","properties":{"label":"NaOCl 원액이송펌프","tag":"M-215 A~C","sheet":"DXF:M-013","in_bldg":true},"geometry":{"type":"Point","coordinates":[127.4001482,37.5111489]}},{"type":"Feature","id":"M_216","properties":{"label":"NaOCl 희석탱크","tag":"M-216 A,B","sheet":"DXF:M-013","in_bldg":true},"geometry":{"type":"Point","coordinates":[127.4001268,37.511228]}},{"type":"Feature","id":"M_218","properties":{"label":"NaOH 주입펌프","tag":"M-218 A~C","sheet":"DXF:M-013","in_bldg":true},"geometry":{"type":"Point","coordinates":[127.4001581,37.5111305]}},{"type":"Feature","id":"M_302","properties":{"label":"총인처리시설","tag":"M-302","sheet":"DXF:M-012","in_bldg":true},"geometry":{"type":"Point","coordinates":[127.4001103,37.5112096]}},{"type":"Feature","id":"M_503","properties":{"label":"케익이송 컨베이어","tag":"M-503","sheet":"DXF:M-012","in_bldg":true},"geometry":{"type":"Point","coordinates":[127.3999955,37.5111803]}},{"type":"Feature","id":"M_504","properties":{"label":"케익저장 콘테이너","tag":"M-504","sheet":"DXF:M-012","in_bldg":true},"geometry":{"type":"Point","coordinates":[127.3999355,37.5111622]}},{"type":"Feature","id":"M_505","properties":{"label":"슬러지저류조 산기장치","tag":"M-505 A,B","sheet":"DXF:M-014","in_bldg":true},"geometry":{"type":"Point","coordinates":[127.3999879,37.5110321]}},{"type":"Feature","id":"M_508","properties":{"label":"폴리머 공급펌프","tag":"M-508 A~C","sheet":"DXF:M-012","in_bldg":true},"geometry":{"type":"Point","coordinates":[127.4000718,37.5111863]}},{"type":"Feature","id":"M_601_1","properties":{"label":"탈취팬","tag":"M-601-1","sheet":"DXF:M-012","in_bldg":true},"geometry":{"type":"Point","coordinates":[127.3999965,37.5111498]}},{"type":"Feature","id":"M_501","properties":{"label":"슬러지 탈수기","tag":"M-501 A,B","sheet":"DXF:M-012","in_bldg":true},"geometry":{"type":"Point","coordinates":[127.4000194,37.5111724]}}]}